[{"name":"Bole Medhanialem","coordinates":[8.9806,38.7893],"id":"1"},{"name":"Meskel Square","coordinates":[9.0102,38.7611],"id":"2"},{"name":"Piassa","coordinates":[9.0365,38.7468],"id":"3"},{"name":"Mexico Square","coordinates":[9.011,38.752],"id":"4"},{"name":"CMC","coordinates":[9.03,38.821],"id":"5"},{"name":"Megenagna","coordinates":[9.0108,38.8003],"id":"6"},{"name":"Sarbet","coordinates":[8.9981,38.7349],"id":"7"},{"name":"Kazanchis","coordinates":[9.0228,38.7639],"id":"8"},{"name":"Gerji","coordinates":[8.9979,38.8089],"id":"9"},{"name":"Ayat","coordinates":[9.0587,38.8495],"id":"10"},{"name":"Lebu","coordinates":[8.9315,38.704],"id":"11"},{"name":"Jemo","coordinates":[8.9155,38.6898],"id":"12"},{"name":"Arat Kilo","coordinates":[9.0374,38.7615],"id":"13"},{"name":"Tor Hailoch","coordinates":[9.0012,38.7275],"id":"14"}]